City,Country,Latitude,Longitude,Temperature (F),Humidity (%),Cloudiness (%),Wind Speed (mph)
Saint Paul Harbor,US,57.79,-152.41,68.0,45,1,14.99
Kuito,AO,-12.38,16.93,57.61,43,0,3.02
Jamestown,US,42.1,-79.24,84.81,65,20,4.7
Port Alfred,ZA,-33.59,26.89,59.0,86,28,1.99
Chokurdakh,RU,70.63,147.92,55.65,62,100,10.36
Ushuaia,AR,-54.8,-68.3,37.4,64,75,16.11
Vaini,TO,-21.2,-175.2,75.2,88,75,5.82
East London,ZA,-33.02,27.91,67.55,52,10,2.04
Ballina,AU,-28.87,153.57,57.43,93,40,4.7
Jinka,ET,5.65,36.65,62.92,82,69,3.56
Kapaa,US,22.08,-159.32,77.14,100,90,17.22
Ubari,LY,26.59,12.78,80.11,21,0,6.89
Khatanga,RU,71.97,102.5,53.87,60,15,17.76
Ancud,CL,-41.87,-73.82,43.83,87,90,8.05
Tongren,CN,27.72,109.19,75.92,91,100,2.17
Yar-Sale,RU,66.83,70.83,54.61,73,0,11.88
Blackfoot,US,43.19,-112.34,83.71,20,40,8.05
Talnakh,RU,69.49,88.4,53.6,93,21,24.61
Todos Santos,MX,23.45,-110.22,84.51,69,6,5.01
San Quintín,MX,30.48,-115.95,72.45,63,9,12.97
Mataura,NZ,-46.19,168.86,44.74,90,98,6.11
São João da Barra,BR,-21.64,-41.05,71.29,80,1,17.87
Punta Arenas,CL,-53.15,-70.92,33.39,86,92,21.92
Alexandria,EG,31.22,29.96,78.8,78,40,8.05
Albany,US,42.6,-73.97,87.46,49,0,3.6
Zhangjiakou,CN,40.81,114.88,61.32,82,31,7.83
At-Bashi,KG,41.17,75.81,51.35,61,95,1.34
Marihatag,PH,8.79,126.3,81.39,77,92,1.57
Yellowknife,CA,62.46,-114.35,65.91,48,75,11.41
Kudahuvadhoo,MV,2.67,72.89,83.66,71,98,8.59
Saint George,US,37.1,-113.58,101.32,5,1,5.82
Kaitangata,NZ,-46.28,169.85,50.0,71,62,10.0
Ginosa,IT,40.58,16.76,67.44,77,5,5.82
Novikovo,RU,51.15,37.89,56.43,88,36,5.95
Severo-Kuril'sk,RU,50.68,156.12,49.41,95,100,8.01
Tura,IN,25.52,90.22,75.15,99,100,4.88
Lavrentiya,RU,65.58,-171.0,52.79,71,12,5.26
Kutum,SD,14.2,24.67,76.84,58,64,8.23
Bredasdorp,ZA,-34.53,20.04,53.6,81,100,10.29
Cherskiy,RU,68.75,161.3,56.68,80,99,5.23
New Norfolk,AU,-42.78,147.06,35.74,93,65,2.13
Busselton,AU,-33.65,115.33,34.97,87,0,7.0
Fortuna,US,40.6,-124.16,65.84,72,20,16.11
Norman Wells,CA,65.28,-126.83,64.4,52,75,4.7
Peterhead,GB,57.51,-1.8,51.55,93,75,5.82
Mitchell,US,43.71,-98.03,84.2,51,1,6.93
Lebu,CL,-37.62,-73.65,53.91,93,100,23.44
Hay River,CA,60.82,-115.8,66.2,63,75,8.05
Chui,UY,-33.7,-53.46,45.73,80,6,8.99
Middelburg,ZA,-25.78,29.46,48.0,76,2,5.46
Cabo San Lucas,MX,22.89,-109.91,86.81,70,75,13.87
Carnarvon,AU,-24.87,113.63,55.4,47,89,10.29
Nouadhibou,MR,20.93,-17.03,80.6,54,0,20.8
Kuril'sk,RU,45.23,147.88,61.03,78,81,1.5
Geraldton,AU,-28.77,114.6,46.4,75,18,5.82
Batemans Bay,AU,-35.72,150.18,46.99,100,100,3.87
Cidreira,BR,-30.18,-50.21,51.15,71,0,12.84
Daru,PG,-9.08,143.21,79.27,87,87,18.9
Leshukonskoye,RU,64.9,45.76,62.49,97,86,6.06
Sindou,BF,10.67,-5.17,75.49,89,95,3.58
Rikitea,PF,-23.12,-134.97,68.23,67,5,20.69
Basco,PH,20.45,121.97,84.34,79,96,11.16
Atherton,GB,53.52,-2.49,54.52,92,100,6.13
Baykit,RU,61.67,96.37,50.88,75,98,3.6
Ségou,ML,13.43,-6.22,89.28,45,31,12.68
Acaraú,BR,-2.89,-40.12,79.21,75,11,14.47
Mahébourg,MU,-20.41,57.7,71.6,78,75,18.34
Hermanus,ZA,-34.42,19.23,52.0,89,100,14.61
Merced,US,37.17,-120.75,96.58,15,1,9.17
Mar del Plata,AR,-38.0,-57.56,45.91,70,100,12.75
Poronaysk,RU,49.22,143.12,57.83,90,92,4.68
Oktyabr'skoye,RU,43.06,44.74,68.0,88,94,8.95
Puerto Ayora,EC,-0.74,-90.35,69.01,89,70,5.01
Aklavik,CA,68.22,-135.01,42.8,87,75,12.75
George Town,MY,5.41,100.34,79.25,94,20,5.37
San Patricio,MX,19.22,-104.7,86.0,74,75,11.41
Faanui,PF,-16.48,-151.75,76.57,80,38,25.61
Atasū,KZ,48.68,71.64,66.07,58,2,7.14
Porto Nacional,BR,-10.71,-48.42,80.6,44,0,4.7
Ekpoma,NG,6.74,6.14,69.37,100,100,4.59
Province of Mantua,IT,45.17,10.78,71.19,73,13,4.7
Escanaba,US,45.75,-87.06,77.86,69,1,8.05
Salalah,OM,17.02,54.09,82.4,88,75,3.36
Naze,JP,28.37,129.48,83.3,94,75,17.22
Cap Malheureux,MU,-19.98,57.61,70.0,77,22,8.01
Rumoi,JP,43.93,141.64,68.85,69,35,4.94
Pangnirtung,CA,66.15,-65.71,46.4,81,20,11.41
Mariehamn,AX,60.1,19.93,46.4,100,10,1.12
Zonguldak,TR,41.25,31.83,55.09,93,0,3.33
Asău,RO,46.43,26.4,59.0,92,1,4.41
Arraial do Cabo,BR,-22.97,-42.03,71.6,78,75,8.05
Tual,ID,-5.67,132.75,79.72,84,92,19.17
Qaanaaq,GL,77.48,-69.36,46.81,55,99,1.05
Linxia Chengguanzhen,CN,35.6,103.21,60.78,70,99,3.53
Freeport,US,40.66,-73.58,81.36,74,40,12.75
Vila Velha,BR,-20.33,-40.29,75.2,88,0,6.93
Ostrovnoy,RU,68.05,39.51,59.38,92,100,12.55
Cape Town,ZA,-33.93,18.42,52.0,87,75,10.29
Guerrero Negro,MX,27.98,-114.06,80.58,39,28,15.5
Mount Gambier,AU,-37.83,140.77,42.8,93,40,8.05
Krasnyy Yar,RU,46.53,48.35,80.29,51,62,8.95
Margate,GB,51.38,1.39,63.0,69,100,5.99
Esperance,AU,-33.87,121.9,46.4,87,40,8.05
Bengkulu,ID,-3.8,102.27,75.34,88,100,7.25
Barcelos,PT,41.54,-8.62,68.02,88,0,4.7
Pevek,RU,69.7,170.31,43.9,99,100,3.24
Klaksvík,FO,62.23,-6.59,50.0,87,97,11.41
Hasaki,JP,35.73,140.83,76.01,94,75,3.36
Simplício Mendes,BR,-7.85,-41.91,77.31,53,10,6.33
Lüderitz,NA,-26.65,15.16,53.6,93,0,9.17
Kshenskiy,RU,51.84,37.71,53.98,92,34,7.09
Bambous Virieux,MU,-20.34,57.76,70.83,78,75,18.34
Saint Anthony,US,45.02,-93.22,78.85,74,1,6.93
La Ronge,CA,55.1,-105.28,69.8,56,75,10.29
Saldanha,ZA,-33.01,17.94,51.8,93,100,4.7
Barrow,US,71.29,-156.79,39.2,80,40,10.29
Lufilufi,WS,-13.87,-171.6,82.81,74,100,11.05
Tasiilaq,GL,65.61,-37.64,44.6,65,100,14.99
Zhigalovo,RU,54.81,105.16,63.1,75,100,1.99
Saskylakh,RU,71.92,114.08,52.48,65,40,10.4
Deputatsky,RU,69.3,139.9,55.65,65,46,4.47
Cockburn Town,TC,21.46,-71.14,83.32,80,100,19.73
Zemio,CF,5.03,25.14,68.68,93,41,1.07
Quesnel,CA,53.0,-122.5,60.8,72,40,5.82
Iúna,BR,-20.35,-41.54,61.75,85,0,3.98
Inongo,CD,-1.95,18.27,72.55,70,98,3.02
Uíge,AO,-7.61,15.06,64.74,82,19,2.37
Pisco,PE,-13.7,-76.22,63.79,68,20,14.99
Castro,BR,-24.79,-50.01,47.01,70,88,0.76
Coquimbo,CL,-29.95,-71.34,59.0,72,85,2.24
Roald,NO,62.58,6.13,51.04,76,75,5.82
Tandil,AR,-37.32,-59.13,48.0,58,99,1.99
Saqqez,IR,36.25,46.27,66.33,52,2,3.04
Brae,GB,60.4,-1.35,50.0,93,71,4.7
Bethel,US,41.37,-73.41,83.62,62,1,10.29
Sørland,NO,67.67,12.69,51.58,86,26,9.71
Broken Hill,AU,-31.95,141.43,50.0,71,96,6.93
Nicoya,CR,10.15,-85.45,78.8,88,75,3.36
Ponazyrevo,RU,58.36,46.31,60.3,97,100,6.87
Meadow Lake,US,34.8,-106.54,95.04,10,40,5.82
Tamiahua,MX,21.27,-97.45,86.27,72,4,13.85
Okato,NZ,-39.2,173.88,46.06,60,28,1.01
Constitución,CL,-35.33,-72.42,50.74,80,93,3.74
Hilo,US,19.73,-155.09,77.05,65,90,3.36
Maxixe,MZ,-23.86,35.35,66.83,81,0,5.64
Marawi,PH,8.0,124.29,75.0,89,30,4.0
Souillac,MU,-20.52,57.52,71.6,78,75,18.34
Butaritari,KI,3.07,172.79,83.53,77,2,14.7
Zhanakorgan,KZ,43.91,67.25,79.25,27,82,10.69
Boali,CF,4.8,18.13,73.4,94,20,2.84
Claremore,US,36.31,-95.62,83.5,57,40,13.13
Tuktoyaktuk,CA,69.45,-133.04,39.2,86,90,9.17
Lemta,TN,35.67,10.88,77.97,83,0,4.7
Nishihara,JP,26.18,127.76,84.15,83,40,11.41
Calabozo,VE,8.92,-67.43,78.62,82,37,3.96
Birao,CF,10.28,22.79,72.81,90,100,2.57
Katsuura,JP,35.13,140.3,76.73,87,93,5.99
Avarua,CK,-21.21,-159.78,78.8,69,82,13.87
Luau,AO,-10.71,22.22,62.37,41,0,4.03
Vanimo,PG,-2.67,141.3,81.25,76,95,6.38
Thompson,CA,55.74,-97.86,62.6,82,90,10.29
Tiznit Province,MA,29.58,-9.5,69.67,48,0,0.96
Oxford,GB,51.75,-1.26,55.6,93,90,6.93
Ammon,US,43.47,-111.97,81.32,20,1,9.17
Iqaluit,CA,63.75,-68.51,46.2,81,75,11.41
São Filipe,CV,14.9,-24.5,74.5,86,53,10.63
Khasan,RU,42.43,130.64,67.1,77,32,5.01
Isparta Province,TR,38.0,31.0,73.4,53,0,17.22
Twin Falls,US,42.56,-114.46,83.21,24,1,6.93
Atuona,PF,-9.8,-139.03,79.65,76,2,14.54
Licheng,CN,23.3,113.83,86.31,70,75,8.95
Dunedin,NZ,-45.87,170.5,50.54,67,78,5.99
Usinsk,RU,65.99,57.53,66.83,81,0,12.71
Kahului,US,20.89,-156.47,78.84,82,14,11.99
Vestmannaeyjar,IS,63.44,-20.27,52.59,77,81,22.26
Tombouctou,ML,20.0,-3.0,96.4,23,80,24.79
Prince Rupert,CA,54.32,-130.32,60.8,77,90,5.82
Santa Isabel Rio Negro,BR,-0.41,-65.02,76.24,91,100,3.56
Hong Kong,HK,22.29,114.16,84.72,74,100,11.01
Olafsvik,IS,64.89,-23.71,51.8,74,60,9.15
Lyuban',BY,52.8,28.0,52.65,88,95,5.99
Doka,SD,13.52,35.77,73.74,77,100,1.1
Sechura,PE,-5.56,-80.82,67.68,68,0,19.17
Diego de Almagro,CL,-26.37,-70.05,52.59,48,0,3.02
Paamiut,GL,61.99,-49.67,45.36,92,100,29.8
Airai,TL,-8.93,125.41,57.9,93,89,4.21
Somerset East,ZA,-32.72,25.59,59.95,39,66,8.68
Karpogory,RU,64.0,44.45,57.18,96,89,7.43
Te Anau,NZ,-45.42,167.72,41.0,85,87,0.78
Nhulunbuy,AU,-12.23,136.77,77.0,78,90,11.41
Maragogi,BR,-9.01,-35.22,75.7,86,47,7.74
Cabedelo,BR,-6.98,-34.83,77.0,88,40,4.7
Lorengau,PG,-2.02,147.27,84.04,74,84,9.82
Saint-Philippe,RE,-21.36,55.77,63.39,82,75,16.11
Chico,US,39.73,-121.84,97.81,17,20,11.41
Lincoln,US,40.8,-96.67,85.69,42,1,8.05
Bilibino,RU,68.05,166.44,61.3,70,85,9.37
Neiafu,TO,-18.65,-173.98,78.8,83,75,8.05
Alice Springs,AU,-23.7,133.88,41.0,48,0,4.7
Kavaratti,IN,10.57,72.64,83.7,74,100,11.34
Severodvinsk,RU,64.56,39.83,53.6,100,20,4.47
Grindavik,IS,63.84,-22.43,50.0,76,75,10.29
Abonnema,NG,4.71,6.79,76.08,88,100,4.68
Moerai,PF,-22.43,-151.33,71.04,71,13,23.09
Pitiquito,MX,30.7,-112.08,101.41,39,9,3.0
Laguna,US,38.42,-121.42,97.23,18,5,5.82
Akdepe,TM,42.06,59.38,79.72,42,0,11.41
Los Llanos de Aridane,ES,28.66,-17.92,71.24,78,10,16.11
Walvis Bay,NA,-22.96,14.51,51.84,81,0,5.82
Dikson,RU,73.51,80.55,42.46,84,0,13.71
Nikolskoye,RU,59.7,30.79,51.3,81,20,6.71
Kiryat Gat,IL,31.61,34.76,73.47,75,4,1.01
Phan Thiet,VN,10.93,108.1,76.93,89,100,2.86
Bol,TD,13.46,14.71,81.18,75,100,14.05
Nagyrábé,HU,47.2,21.33,67.39,77,4,3.36
Mucurapo,TT,10.67,-61.53,83.77,66,20,13.87
Nador,MA,35.17,-2.93,73.56,83,47,2.24
Abu Samrah,SY,35.3,37.18,69.69,69,0,9.19
Ust-Maya,RU,60.42,134.53,55.09,96,100,10.63
Lata,PT,40.16,-8.33,64.0,79,12,1.99
Port-Cartier,CA,50.03,-66.87,65.57,82,40,6.93
Maceió,BR,-9.67,-35.74,73.4,94,75,3.36
Hobart,AU,-42.88,147.33,36.37,93,75,4.7
Tyler,US,32.35,-95.3,91.53,52,20,9.17
Passo Fundo,BR,-28.26,-52.41,42.19,90,40,3.29
Vila Franca do Campo,PT,37.72,-25.43,68.0,72,75,8.05
Eyl,SO,7.98,49.82,81.19,63,98,27.65
Otukpo,NG,7.19,8.13,72.28,97,99,5.06
Flinders,AU,-34.58,150.86,53.24,93,86,1.01
Yulara,AU,-25.24,130.99,37.4,47,0,5.82
Terrace Bay,CA,48.78,-87.1,59.94,86,84,5.17
Arrondissement de Marseille,FR,43.33,5.5,71.83,88,38,5.82
Ponta Delgada,PT,37.73,-25.67,68.0,72,75,8.05
Varna,BG,43.22,27.92,60.64,82,0,3.36
Gorshechnoye,RU,51.52,38.04,54.54,92,60,6.62
Fort Nelson,CA,58.81,-122.7,62.6,77,75,2.01
Schisma Eloundas,GR,35.27,25.72,74.23,73,5,12.75
Nuuk,GL,64.18,-51.72,44.6,87,90,28.86
Kawalu,ID,-7.38,108.21,70.77,93,99,1.28
Hithadhoo,MV,-0.6,73.08,84.36,72,81,7.0
Kruisfontein,ZA,-34.0,24.73,52.47,93,51,5.23
Ko Samui,TH,9.54,99.94,82.4,74,20,2.24
Andria,IT,41.23,16.29,63.3,72,0,6.93
Pingxiang,CN,27.62,113.85,77.72,92,100,2.13
Charters Towers,AU,-20.1,146.27,65.57,80,49,12.75
Gōtsuchō,JP,35.0,132.22,72.95,94,100,6.82
Osoyoos,CA,49.03,-119.45,68.36,63,90,3.36
Ambulu,ID,-8.35,113.61,71.33,88,67,2.06
Komsomol'skoye,RU,55.26,47.55,66.02,93,86,7.7
Hambantota,LK,6.12,81.12,80.19,79,76,14.18
Buluang,PH,13.31,123.34,80.2,85,100,2.98
Kendari,ID,-3.94,122.5,74.21,93,99,3.15
Gwadar,PK,25.12,62.33,85.03,81,95,5.08
Tuatapere,NZ,-46.13,167.68,47.32,81,94,7.11
Shimoda,JP,34.67,138.95,75.0,83,99,1.01
Genhe,CN,50.78,121.52,72.0,45,82,3.22
Valdez,EC,1.25,-78.98,78.26,85,81,14.81
Shahreza,IR,32.03,51.88,70.07,23,9,3.44
Shar,KZ,49.59,81.05,66.58,66,0,6.55
Fayaoué,NC,-20.65,166.53,70.65,77,4,25.86
Pochutla,MX,15.74,-96.47,93.61,49,75,6.93
Yermakovskoye,RU,53.28,92.4,59.25,90,99,2.08
Tiksi,RU,71.69,128.87,36.19,89,83,8.68
Russell,US,32.35,-85.2,90.48,55,20,4.7
Jumla,NP,29.27,82.18,63.25,70,100,1.72
Goderich,CA,43.75,-81.72,81.41,83,55,11.01
Capaci,IT,38.17,13.24,76.75,78,0,9.17
Killam,CA,52.78,-111.85,68.94,65,81,8.3
Mahajanga,MG,-15.72,46.32,71.35,53,0,18.77
Iporá,BR,-16.44,-51.12,70.77,59,5,6.02
Hūn,LY,29.13,15.95,77.32,62,0,6.58
Nome,US,64.5,-165.41,58.1,67,1,12.75
Husavik,IS,66.04,-17.34,48.2,76,75,10.29
Tūkrah,LY,32.53,20.58,75.04,78,0,16.17
Calderitas,MX,18.55,-88.25,89.6,66,40,11.41
Kimbe,PG,-5.55,150.14,83.59,69,78,3.44
Stelnica,RO,44.42,27.88,64.2,72,0,3.36
Mollendo,PE,-17.02,-72.01,59.61,77,14,2.8
Port Elizabeth,ZA,-33.92,25.57,59.0,82,56,8.05
Dakar,SN,14.69,-17.44,82.4,74,75,13.87
Dvinskoy Bereznik,RU,62.86,42.71,52.03,97,82,4.9
Mossamedes,AO,-15.2,12.15,61.86,81,0,8.68
Vao,NC,-22.67,167.48,67.35,71,0,20.89
Nurota,UZ,40.56,65.69,75.2,27,0,9.17
Laas,IT,46.62,10.7,60.8,87,5,1.12
Hamilton,US,39.18,-84.53,84.31,74,1,2.62
Karratha,AU,-20.74,116.85,64.17,28,15,15.08
Nanortalik,GL,60.14,-45.24,45.12,93,100,10.54
Kungurtug,RU,50.6,97.52,50.43,79,41,0.87
Tomé,CL,-36.62,-72.95,53.6,100,90,10.29
Umm Kaddadah,SD,13.6,26.69,79.74,62,97,13.89
Bayan,CN,46.08,127.4,80.01,51,0,10.58
Okhotsk,RU,59.38,143.3,53.26,91,100,5.99
Ouadda,CF,8.08,22.4,68.7,94,100,1.99
Chioggia,IT,45.23,12.29,73.13,78,65,4.7
Cookeville,US,36.16,-85.5,85.32,58,75,14.99
Bukachacha,RU,52.98,116.92,68.23,82,97,4.74
Caravelas,BR,-17.71,-39.25,71.37,86,0,5.41
Óbidos,BR,-1.92,-55.52,78.67,78,99,2.86
Nantucket,US,41.28,-70.1,73.92,88,1,8.05
Poum,NC,-20.23,164.02,70.72,74,34,13.96
Puerto Escondido,MX,15.85,-97.07,87.8,66,40,6.93
Port Blair,IN,11.67,92.75,81.21,81,100,9.93
Namtsy,RU,62.72,129.67,66.2,59,40,6.71
State of Wyoming,US,43.0,-107.5,84.0,12,29,7.76
Mlalo,TZ,-4.93,38.93,70.02,92,2,5.06
Yerbogachën,RU,61.28,108.01,59.77,78,45,2.19
Tākestān,IR,36.07,49.7,75.2,53,75,4.7
Lagos,NG,6.58,3.75,77.0,94,20,2.24
Bluff,NZ,-46.6,168.33,50.07,80,86,15.9
Los Andes,CL,-32.83,-70.6,57.2,58,34,3.36
Ust'-Kut,RU,56.79,105.77,62.78,79,99,3.04
Noyabrsk,RU,63.2,75.45,54.01,71,13,20.62
San Vicente,AR,-26.62,-54.13,44.44,97,0,2.93
Pauini,BR,-7.71,-66.98,81.93,64,93,2.01
Ma’anshan,CN,31.7,118.5,76.28,100,75,6.71
Gushikawa,JP,26.35,127.87,84.13,83,1,11.41
Uyuni,BO,-20.46,-66.83,34.61,57,0,3.18
Port Hardy,CA,50.7,-127.42,60.8,82,75,4.7
Bereda,ES,43.27,-7.54,56.89,91,1,1.99
Gull Lake,CA,50.1,-108.48,68.0,49,1,6.93
Estevan,CA,49.13,-102.98,65.82,72,90,14.99
Rome,US,43.21,-75.46,91.04,38,1,3.36
Ilovlya,RU,49.3,43.98,71.29,68,24,17.9
Beringovskiy,RU,63.05,179.32,57.6,66,84,7.02
Egvekinot,RU,66.32,-179.17,51.84,73,88,4.09
Coyhaique,CL,-45.58,-72.07,33.8,86,75,3.36
Zapolyarnyy,RU,69.42,30.81,48.2,100,90,4.7
Springbok,ZA,-29.66,17.89,42.35,96,31,8.23
Pacific Grove,US,36.62,-121.92,60.42,68,1,12.75
Provideniya,RU,64.38,-173.3,51.8,76,20,13.42
Dayong,CN,25.02,118.29,84.2,83,40,8.95
Clyde River,CA,70.47,-68.59,41.0,93,75,8.05
Anloga,GH,5.79,0.9,78.8,83,20,10.29
Benguela,AO,-12.58,13.41,66.2,86,17,1.61
Yumen,CN,40.28,97.2,66.54,28,7,3.74
Havre-St-Pierre,CA,50.23,-63.6,66.2,82,75,4.7
Riberalta,BO,-10.98,-66.1,74.88,83,60,4.99
Thinadhoo,MV,0.53,72.93,84.52,70,90,6.46
Nivala,FI,63.92,24.97,48.99,92,98,4.18
Rabo de Peixe,PT,37.8,-25.58,68.0,72,75,8.05
Bhīnmāl,IN,25.0,72.25,84.06,72,72,17.56
Llandrindod Wells,GB,52.24,-3.38,53.69,98,97,1.01
Evans,US,33.53,-82.13,87.87,62,75,6.93
Sitia,GR,35.2,26.1,75.0,60,11,25.99
Carbonear,CA,47.73,-53.21,54.36,49,100,8.9
Poyarkovo,RU,49.6,128.68,69.44,78,66,6.8
Sitka,US,57.05,-135.33,55.4,93,90,4.7
Najrān,SA,17.49,44.13,91.4,16,71,3.36
Staraya Poltavka,RU,50.48,46.48,76.01,58,100,4.07
Birjand,IR,32.87,59.22,75.2,16,0,15.08
Cedar City,US,37.68,-113.06,89.6,3,1,19.46
Taoudenni,ML,22.68,-3.98,94.35,10,0,4.41
Lompoc,US,34.64,-120.46,64.69,68,10,14.99
Lagoa,PT,39.05,-27.98,69.03,71,14,3.31
Kumul,CN,42.8,93.45,76.33,22,84,19.19
Clara,IE,53.34,-7.61,50.13,82,3,6.96
Tautira,PF,-17.73,-149.15,84.2,54,20,6.93
Alofi,NU,-19.06,-169.92,78.8,83,75,4.7
Leningradskiy,RU,69.38,178.42,52.21,65,91,12.26
Vikulovo,RU,56.82,70.61,65.14,93,1,9.66
Bloemfontein,ZA,-29.12,26.21,50.0,66,0,8.05
Longyearbyen,SJ,78.22,15.64,44.6,87,75,8.05
Marzuq,YE,14.4,46.47,85.96,36,65,2.1
Keti Bandar,PK,24.14,67.45,85.8,84,61,15.28
Nadym,RU,65.53,72.52,52.61,73,0,16.93
Dandong,CN,40.13,124.39,72.93,75,100,4.59
Petra,JO,30.32,35.48,62.83,76,0,3.44
Mildura,AU,-34.2,142.15,39.2,86,100,3.36
Amparafaravola,MG,-17.58,48.22,54.27,91,27,6.38
Porto-Novo,BJ,6.5,2.6,76.24,85,100,6.73
Bétérou,BJ,9.2,2.26,73.44,92,86,5.59
Ribeira Grande,PT,38.52,-28.7,68.0,72,75,5.82
Chekmagush,RU,55.13,54.66,70.07,83,0,3.24
Zhezkazgan,KZ,47.8,67.71,71.35,48,4,9.26
Marion,US,39.77,-86.16,90.19,55,40,8.05
Adeje,ES,28.12,-16.73,71.49,73,0,12.75
Kapoeta,SS,4.77,33.59,76.1,59,69,1.07
Barraute,CA,48.43,-77.63,88.43,38,40,9.17
Southbridge,US,42.08,-72.03,83.57,73,10,1.99
Makkah al Mukarramah,SA,21.43,39.83,88.66,13,0,7.85
Kaduna,NG,10.52,7.44,73.35,86,97,6.06
Codrington,AU,-38.27,141.97,46.31,76,100,10.51
Upernavik,GL,72.79,-56.15,43.47,76,100,4.99
Fuyang,CN,32.9,115.82,74.62,91,42,7.05
Stornoway,GB,58.21,-6.39,48.96,93,100,4.7
Piaçabuçu,BR,-10.41,-36.43,75.76,86,44,9.95
Saint-François,FR,46.42,3.91,67.95,72,3,3.36
Grand-Santi,GF,4.25,-54.38,75.15,95,89,2.71
Puerto Quijarro,BO,-17.78,-57.77,63.82,76,100,3.51
Camopi,GF,3.17,-52.32,74.46,95,99,2.01
Ola,RU,59.58,151.28,52.66,95,100,1.14
Allanridge,ZA,-27.75,26.64,48.0,77,0,7.63
Wilmington,US,34.23,-77.94,80.89,88,40,4.7
Ilulissat,GL,69.22,-51.1,46.4,87,75,3.36
Xixiang,CN,35.16,112.86,79.0,1,61,7.36
Evensk,RU,61.95,159.23,54.82,87,100,0.47
Haines Junction,CA,60.75,-137.51,65.39,41,95,4.59
Comé,BJ,6.41,1.88,76.24,84,100,8.21
Riviere-au-Renard,CA,49.0,-64.4,69.8,83,75,1.97
Ambon City,ID,-3.7,128.18,79.0,14,85,14.74
Tilichiki,RU,60.47,166.1,51.28,92,100,5.3
Sisimiut,GL,66.94,-53.67,44.56,93,100,10.38
Chicama,PE,-7.84,-79.15,65.23,71,22,8.93
Lázaro Cárdenas,MX,17.96,-102.2,85.78,69,92,12.37
Sarandi,BR,-23.44,-51.87,50.86,77,100,3.06
Elliot,ZA,-31.33,27.85,50.95,60,86,10.51
Kosh-Agach,RU,50.0,88.67,48.88,71,10,1.45
Kerema,PG,-7.96,145.78,80.83,78,46,3.85
Pokhara,NP,28.23,83.98,72.73,89,100,0.89
Malanje,AO,-9.54,16.34,62.92,66,0,6.71
Mehamn,NO,71.04,27.85,46.2,93,100,13.31
Swellendam,ZA,-34.02,20.44,53.6,81,100,10.29
Cururupu,BR,-1.83,-44.87,75.65,88,11,3.4
Beira,MZ,-19.84,34.84,64.2,93,0,2.24
Yangi Marg`ilon,UZ,40.43,71.72,75.2,36,98,9.17
Kaohsiung City,TW,22.62,120.31,86.47,62,75,3.36
Honningsvåg,NO,70.98,25.97,46.15,91,100,15.35
Arrondissement de Gap,FR,44.67,6.0,70.0,53,3,7.0
Kibara,TZ,-2.15,33.45,69.8,73,20,11.41
Grand Gaube,MU,-20.01,57.66,70.0,77,26,8.01
Severo-Yeniseyskiy,RU,60.37,93.04,48.4,98,82,6.26
Bubaque,GW,11.28,-15.83,82.49,82,99,17.43
Buala,SB,-8.14,159.59,83.37,76,60,12.48
Gashua,NG,12.87,11.05,90.97,34,99,4.81
Ponta do Sol,PT,32.67,-17.1,68.47,73,0,3.8
Ibiraçu,BR,-19.83,-40.37,75.2,88,0,6.93
Parker,US,32.77,-97.8,93.54,55,0,1.99
Obzor,BG,42.82,27.88,64.74,77,0,5.82
Kisangani,CD,0.52,25.2,72.73,90,38,1.59
Ouésso,CG,1.61,16.05,73.85,84,100,2.73
Nānākuli,US,21.39,-158.15,85.44,48,75,10.29
Grants,US,35.15,-107.85,93.2,10,40,17.22
Don Luan,VN,11.53,106.92,74.25,96,100,3.22
Nevel',RU,56.02,29.93,48.52,94,0,4.94
Sisophon,KH,13.59,102.97,76.44,92,100,5.01
Leirvik,NO,59.78,5.5,51.31,77,17,1.99
Ust-Tsilma,RU,65.44,52.15,73.36,65,4,5.53
Avera,US,33.19,-82.53,86.85,62,40,6.93
Bose,IT,45.46,8.01,71.02,79,90,5.99
San Lorenzo,PY,-25.33,-57.53,53.6,81,0,3.36
Provincia di Pescara,IT,42.33,13.95,68.0,77,0,3.36
Gympie,AU,-26.19,152.66,57.0,97,24,1.99
Krasnosel'kup,RU,65.7,82.47,58.6,62,60,17.87
Denpasar,ID,-8.65,115.22,78.8,100,75,9.17
Hurghada,EG,27.26,33.81,86.0,25,0,8.05
Bondo,CD,3.81,23.69,69.37,98,91,2.15
Ndélé,CF,8.41,20.65,68.14,92,100,2.21
Narsaq,GL,60.92,-46.05,50.0,81,99,5.82
Shrīgonda,IN,18.62,74.68,74.43,86,100,9.08
Arrondissement de Figeac,FR,44.75,1.92,67.78,77,51,4.7
Darhan,MN,49.49,105.92,58.91,77,100,5.73
Varadero,CU,23.15,-81.25,86.0,74,40,12.75
Santa Maria,BR,-29.68,-53.81,48.2,87,2,3.36
Naryan-Mar,RU,67.67,53.09,72.1,75,0,13.29
Neryungri,RU,56.67,124.65,63.84,83,81,3.69
Mayor Pablo Lagerenza,PY,-19.93,-60.77,61.03,68,86,4.36
Biak,ID,-0.91,122.88,77.18,83,80,5.77
Samarai,PG,-10.62,150.67,78.48,88,99,20.47
Olinda,BR,-8.01,-34.86,80.6,78,75,8.05
Havelock,US,34.88,-76.9,82.9,74,90,9.17
Rundu,NA,-17.93,19.77,53.6,58,0,4.7
Fairbanks,US,64.84,-147.72,59.16,87,75,4.7
Natchez,US,31.56,-91.4,90.48,70,40,3.36
Parrita,CR,9.52,-84.32,71.42,83,75,8.05
Levice,SK,48.22,18.61,66.99,74,28,1.99
Wukari,NG,7.85,9.78,76.6,87,86,7.76
Pangody,RU,65.85,74.49,53.83,69,0,18.81
Viedma,AR,-40.81,-63.0,50.18,57,100,26.26
Kodoli,IN,16.88,74.2,72.66,89,100,6.33
Praia da Vitória,PT,38.73,-27.07,69.8,83,40,6.53
Marsh Harbour,BS,26.54,-77.06,85.66,71,100,8.7
Biu,NG,10.61,12.19,68.25,91,100,11.41
Takoradze,GH,4.88,-1.76,75.2,92,97,6.96
Kupino,RU,54.37,77.3,68.11,92,88,11.23
Aykhal,RU,66.0,111.5,53.6,93,90,6.71
Lapua,FI,62.97,23.01,48.27,94,85,1.99
Nelson Bay,AU,-32.72,152.15,55.51,100,75,9.17
Kholmogory,RU,64.22,41.66,53.6,100,20,4.47
Kenai,US,60.55,-151.26,63.57,67,20,10.29
Galesong,ID,-5.32,119.37,77.0,100,20,3.36
Verkhnevilyuysk,RU,63.45,120.32,68.77,57,13,5.1
Praxédis Guerrero,MX,31.37,-106.02,106.36,9,40,8.05
Kalabo,ZM,-14.97,22.68,58.44,36,0,4.12
Chiang Klang,TH,19.29,100.86,75.22,88,100,1.99
Petukhovo,RU,55.07,67.9,69.78,91,27,10.02
Kilindoni,TZ,-7.91,39.67,76.73,83,4,11.56
Būndi,IN,25.44,75.64,84.85,66,92,13.73
Curup,ID,-3.47,102.53,66.96,90,100,2.33
Atar,MR,20.52,-13.05,96.22,10,0,6.69
Muisne,EC,0.6,-80.03,74.62,88,83,12.57
Sur,OM,22.57,59.53,92.32,45,100,8.97
Riyadh,SA,24.69,46.72,89.6,15,35,4.7
Calama,CL,-22.47,-68.93,64.4,2,0,12.75
Barma,SL,8.35,-11.33,73.06,94,100,3.98
Port Lincoln,AU,-34.73,135.87,53.49,82,88,10.27
Kyra,RU,49.58,111.98,61.25,89,99,1.43
Jacala,MX,21.02,-99.18,75.9,62,20,6.6
Ibrā’,OM,22.69,58.53,86.31,46,100,9.42
Manokwari,ID,-0.87,134.08,81.61,74,80,8.03
Collie,AU,-33.37,116.15,34.65,87,0,2.71
Isangel,VU,-19.55,169.27,66.2,93,75,18.57
Doha,QA,25.29,51.53,93.24,89,13,3.36
Boyolangu,ID,-8.12,111.89,73.36,89,100,6.6
Osa,RU,57.28,55.46,69.42,90,0,2.04
Noumea,NC,-22.28,166.46,71.22,53,34,12.75
Sydney,AU,-33.87,151.21,50.81,87,75,8.05
Touros,BR,-5.2,-35.46,77.0,88,40,3.36
Bandarbeyla,SO,9.49,50.81,80.33,66,95,31.76
Sekoma,BW,-24.4,23.88,54.39,50,0,7.58
Narrabri,AU,-30.32,149.78,56.08,71,90,5.06
College,US,64.86,-147.8,59.31,93,90,4.7
Omboué,GA,-1.57,9.26,73.78,83,100,8.28
Tyumentsevo,RU,53.32,81.5,63.75,95,95,9.01
Pierre,US,44.37,-100.35,86.88,37,1,5.82
Caarapó,BR,-22.63,-54.82,53.13,72,53,4.94
La Santisima Trinidad,BO,-14.83,-64.9,65.28,76,98,4.43
Jepara,ID,-5.17,105.7,71.92,96,97,4.18
Ust-Kuyga,RU,70.02,135.6,61.03,57,70,4.54
Portland,US,45.52,-122.68,74.48,49,75,3.36
San Policarpo,PH,12.18,125.51,83.64,77,100,7.2
Yārāda,IN,17.65,83.27,80.6,100,75,6.93
Koungou,YT,-12.73,45.2,78.8,69,90,18.34
Vanavara,RU,60.34,102.28,53.98,71,36,2.06
Mangai,CD,-4.05,19.53,75.61,54,4,1.12
Chapais,CA,49.78,-74.85,84.2,39,75,5.82
Inhambane,MZ,-23.86,35.38,67.87,79,0,6.42
La Rochelle,FR,46.17,-1.15,66.2,77,90,13.87
Mt. Pleasant,US,32.79,-79.86,84.24,79,20,3.36
Erenhot,CN,43.65,111.98,71.51,43,0,7.38
Christchurch,NZ,-43.53,172.63,44.02,81,49,1.97
Voznesenskoye,RU,54.89,42.76,53.58,92,1,5.21
La Providencia,MX,28.72,-111.58,96.04,46,0,15.99
Uberaba,BR,-19.75,-47.93,68.0,64,44,6.93
Kununurra,AU,-15.77,128.73,60.8,33,15,3.36
Mattru,SL,7.62,-11.83,73.26,97,100,4.09
Whitehorse,CA,60.72,-135.05,59.95,67,75,11.41
Teya,RU,60.38,92.63,52.39,90,95,6.24
Sal Rei,CV,16.18,-22.92,78.8,78,75,12.75
Half Moon Bay,US,37.46,-122.43,63.5,77,1,14.99
Province of Trapani,IT,37.83,12.67,71.62,88,0,2.24
Carlyle,US,38.61,-89.37,90.72,57,67,4.0
Concepción,CL,-36.83,-73.05,53.6,100,90,10.29
San Juan,AR,-31.54,-68.54,51.93,41,66,5.86
Madimba,TZ,-10.4,40.33,73.4,94,40,9.17
Muros,ES,42.78,-9.06,66.0,80,26,5.99
Galich,RU,58.38,42.35,51.89,95,79,3.15
Yenagoa,NG,4.92,6.26,75.13,92,100,3.65
Sorong,ID,-0.88,131.25,78.85,85,34,7.16
Luganville,VU,-15.53,167.17,77.0,94,75,8.05
Fredericksburg,US,38.3,-77.46,87.48,59,1,9.17
Saiha,IN,22.48,92.97,69.48,93,100,2.75
Praia,CV,14.92,-23.51,78.8,74,75,10.29
Puerto Suárez,BO,-18.95,-57.8,60.3,86,100,2.08
Strezhevoy,RU,60.73,77.59,57.2,71,75,8.95
Torbay,CA,47.67,-52.73,55.09,76,90,10.29
Hualmay,PE,-11.1,-77.61,62.22,79,8,10.69
Strøby Egede,DK,55.41,12.24,49.93,93,71,4.34
